,City,Lat,Lng,Max Temp,Humidity,Cloudiness,Wind Speed,Country,Date
0,bluff,-46.6,168.3333,12.67,84,91,5.75,NZ,1651313059
1,yazman,29.1212,71.7446,45.22,6,0,3.17,PK,1651313059
2,puerto ayora,-0.7393,-90.3518,21.4,93,49,2.68,EC,1651313060
3,mataura,-46.1927,168.8643,12.49,91,82,1.67,NZ,1651313060
4,cape town,-33.9258,18.4232,20.62,67,17,1.34,ZA,1651312820
5,chkalovskoye,44.8392,133.0436,7.21,66,100,5.8,RU,1651313061
6,rikitea,-23.1203,-134.9692,25.17,71,77,6.2,PF,1651313061
7,quatre cocos,-20.2078,57.7625,27.83,63,0,4.6,MU,1651313062
8,kiboga,0.9161,31.7742,28.53,41,100,1.55,UG,1651313062
9,yellowknife,62.456,-114.3525,-6.91,73,32,4.47,CA,1651313062
10,muhos,64.808,25.9931,4.94,70,99,2.94,FI,1651312991
11,bethel,41.3712,-73.414,7.2,58,0,2.06,US,1651313063
12,vaini,-21.2,-175.2,25.09,94,100,4.63,TO,1651313033
13,georgetown,5.4112,100.3354,31.96,62,20,2.06,MY,1651312812
14,bambous virieux,-20.3428,57.7575,27.9,65,40,5.14,MU,1651313064
15,albany,42.6001,-73.9662,2.41,62,3,2.02,US,1651313064
16,new norfolk,-42.7826,147.0587,12.73,66,50,0.89,AU,1651313065
17,hilo,19.7297,-155.09,22.93,99,100,1.34,US,1651312778
18,hue,16.4667,107.6,26.06,94,75,3.6,VN,1651312882
19,mozirje,46.3394,14.9633,20.35,42,28,2.1,SI,1651313068
20,qaanaaq,77.484,-69.3632,-11.1,77,99,3.77,GL,1651313068
21,atuona,-9.8,-139.0333,25.6,79,65,6.48,PF,1651313068
22,saint anthony,45.0205,-93.218,11.14,87,100,9.26,US,1651313069
23,torbay,47.6666,-52.7314,4.86,96,100,1.54,CA,1651313069
24,bengkulu,-3.8004,102.2655,27.77,80,68,2.25,ID,1651312984
25,san patricio,28.017,-97.5169,25.5,96,20,4.79,US,1651313070
26,punta arenas,-53.15,-70.9167,2.65,79,15,1.26,CL,1651313070
27,dikson,73.5069,80.5464,-5.87,89,100,8.9,RU,1651313070
28,saldanha,-33.0117,17.9442,16.77,69,3,3.9,ZA,1651312854
29,pevek,69.7008,170.3133,-17.33,100,70,2.02,RU,1651313071
30,kermanshah,34.3142,47.065,21.5,40,20,7.2,IR,1651313072
31,tasiilaq,65.6145,-37.6368,0.09,80,79,4.76,GL,1651313072
32,nikolskoye,59.7035,30.7861,6.6,37,11,3.75,RU,1651313072
33,khatanga,71.9667,102.5,-9.92,83,35,4.85,RU,1651313073
34,constitucion,-35.3333,-72.4167,9.45,60,0,2.81,CL,1651313073
35,barrow,71.2906,-156.7887,-11.99,92,0,3.6,US,1651313074
36,port elizabeth,-33.918,25.5701,21.17,62,27,6.26,ZA,1651313075
37,vestmannaeyjar,63.4427,-20.2734,7.55,81,0,4.63,IS,1651313075
38,iqaluit,63.7506,-68.5145,-17.48,89,45,1.49,CA,1651312946
39,kapaa,22.0752,-159.319,23.6,85,100,2.24,US,1651312877
40,clyde river,70.4692,-68.5914,-15.71,77,70,1.29,CA,1651312940
41,palm valley,30.1775,-81.3876,21.68,82,100,4.12,US,1651313076
42,aykhal,66.0,111.5,2.23,99,100,8.69,RU,1651313076
43,hermanus,-34.4187,19.2345,19.89,64,41,3.71,ZA,1651313077
44,hithadhoo,-0.6,73.0833,29.56,73,53,5.5,MV,1651313077
45,busselton,-33.65,115.3333,16.43,71,6,3.87,AU,1651312819
46,kismayo,-0.3582,42.5454,30.33,64,53,6.33,SO,1651313078
47,hailey,43.5196,-114.3153,-0.08,73,0,2.57,US,1651313079
48,kodiak,57.79,-152.4072,5.73,87,100,13.38,US,1651313079
49,high level,58.5169,-117.136,-0.69,92,100,2.44,CA,1651313080
50,port alfred,-33.5906,26.891,22.32,50,57,4.02,ZA,1651313081
51,bredasdorp,-34.5322,20.0403,20.47,45,12,4.64,ZA,1651313081
52,souillac,-20.5167,57.5167,27.21,65,40,5.14,MU,1651313081
53,shediac,46.2198,-64.5411,1.29,93,100,6.17,CA,1651313082
54,crateus,-5.1783,-40.6775,22.73,67,45,1.32,BR,1651313082
55,aldan,58.6031,125.3894,0.31,61,47,2.24,RU,1651313083
56,disna,55.568,28.1971,9.18,44,82,3.74,BY,1651313083
57,dingle,10.9995,122.6711,27.23,76,70,3.05,PH,1651313084
58,jumla,29.2747,82.1838,20.27,38,100,2.56,NP,1651313084
59,cuenca,-2.8833,-78.9833,12.07,100,100,1.03,EC,1651313085
60,fairbanks,64.8378,-147.7164,3.11,70,17,1.94,US,1651313085
61,komsomolsk,49.0097,33.6455,14.43,47,93,2.52,UA,1651313085
62,chuy,-33.6971,-53.4616,8.68,83,5,1.38,UY,1651313086
63,dirba,30.0667,75.9833,44.89,5,4,4.68,IN,1651313086
64,kaitangata,-46.2817,169.8464,10.19,86,79,1.85,NZ,1651313087
65,newtownards,54.5924,-5.6909,10.41,93,100,2.57,GB,1651313088
66,teberda,43.4456,41.7448,16.03,62,33,1.18,RU,1651313088
67,muisne,0.6,-80.0333,24.78,90,98,3.61,EC,1651313088
68,talaya,61.3833,152.75,-6.11,90,96,1.81,RU,1651313089
69,guerrero negro,27.9769,-114.0611,14.32,86,41,6.48,MX,1651313089
70,ushuaia,-54.8,-68.3,1.32,87,23,1.47,AR,1651313023
71,voznesenskaya,44.5527,41.0318,19.53,65,87,2.17,RU,1651313090
72,saint-philippe,-21.3585,55.7679,28.77,74,50,5.85,RE,1651313090
73,bathsheba,13.2167,-59.5167,25.99,79,54,7.43,BB,1651313091
74,college,64.8569,-147.8028,3.1,70,18,1.98,US,1651313091
75,esperance,-33.8667,121.9,16.47,68,9,1.81,AU,1651313092
76,praya,14.9215,-23.5087,24.3,57,20,8.75,CV,1651313092
77,roebourne,-20.7833,117.1333,26.96,45,99,8.03,AU,1651313092
78,saint george,37.1041,-113.5841,15.33,29,0,6.17,US,1651313093
79,byron bay,-28.65,153.6167,21.08,88,100,3.69,AU,1651312848
80,carnarvon,-24.8667,113.6333,27.2,47,0,5.91,AU,1651313093
81,faanui,-16.4833,-151.75,27.2,73,11,7.68,PF,1651313094
82,hami,42.8,93.45,21.55,11,9,2.27,CN,1651313094
83,bethanien,-26.502,17.1583,20.08,22,0,2.97,NA,1651313095
84,waw,7.7029,27.9953,37.3,30,79,2.43,SS,1651313095
85,freeport,40.6576,-73.5832,8.47,46,0,4.63,US,1651313096
86,yzeure,46.5644,3.355,16.27,46,7,2.94,FR,1651313096
87,castro,-24.7911,-50.0119,13.89,95,100,3.26,BR,1651312929
88,la orilla,17.9833,-102.2333,21.57,85,19,1.91,MX,1651313097
89,umm lajj,25.0213,37.2685,32.56,43,0,9.13,SA,1651313098
90,severo-kurilsk,50.6789,156.125,0.7,85,94,7.02,RU,1651313098
91,laguna,38.421,-121.4238,15.05,76,0,1.54,US,1651313099
92,omboue,-1.5746,9.2618,27.95,77,99,4.03,GA,1651313099
93,ovsyanka,55.9575,92.5519,26.54,43,99,3.4,RU,1651313099
94,thompson,55.7435,-97.8558,1.76,99,100,2.72,CA,1651313100
95,kahului,20.8947,-156.47,23.25,87,69,3.13,US,1651313100
96,mana,5.6592,-53.7767,25.7,80,95,5.08,GF,1651313101
97,bowmore,34.9421,-79.3031,15.91,85,0,1.54,US,1651313101
98,salalah,17.0151,54.0924,33.05,62,20,6.69,OM,1651313102
99,kharitonovo,61.4009,47.4978,2.74,74,100,3.19,RU,1651313102
100,cesvaine,56.9667,26.3167,9.0,33,15,2.03,LV,1651313103
101,creel,27.75,-107.6333,4.29,38,0,1.33,MX,1651313103
102,tarauaca,-8.1614,-70.7656,20.97,99,82,0.67,BR,1651313103
103,saskylakh,71.9167,114.0833,-5.71,88,99,8.05,RU,1651313104
104,caranavi,-15.8167,-67.55,17.37,99,100,0.3,BO,1651313104
105,kruisfontein,-34.0033,24.7314,19.94,50,13,9.25,ZA,1651313105
106,naze,28.3667,129.4833,18.63,80,100,3.48,JP,1651313035
107,ambon,-3.6954,128.1814,34.08,59,40,2.06,ID,1651313106
108,langxiang,46.95,128.8833,4.68,80,89,1.32,CN,1651313106
109,port hawkesbury,45.6169,-61.3485,5.35,99,100,1.54,CA,1651313106
110,vanavara,60.34,102.2797,10.08,78,90,4.6,RU,1651313107
111,bouna,9.2667,-3.0,32.63,45,93,2.96,CI,1651313107
112,novyy urengoy,66.0833,76.6333,-2.26,83,69,8.34,RU,1651313108
113,lompoc,34.6391,-120.4579,15.52,89,0,3.09,US,1651313108
114,vila franca do campo,37.7167,-25.4333,17.23,82,17,3.11,PT,1651313109
115,provideniya,64.3833,-173.3,-0.8,94,98,5.43,RU,1651313109
116,tiksi,71.6872,128.8694,2.63,74,100,9.45,RU,1651313110
117,rioja,-29.4111,-66.8507,9.83,73,22,1.85,AR,1651313111
118,sorland,67.667,12.6934,2.92,58,100,3.92,NO,1651313112
119,hervey bay,-25.2986,152.8535,21.68,86,57,2.68,AU,1651313112
120,mahebourg,-20.4081,57.7,27.92,65,40,5.14,MU,1651313113
121,khandyga,62.6667,135.6,-1.51,93,73,1.42,RU,1651313113
122,rosarito,32.3333,-117.0333,14.67,87,0,1.26,MX,1651313114
123,riyadh,24.6877,46.7219,34.82,13,0,7.08,SA,1651312892
124,isangel,-19.55,169.2667,24.95,83,100,8.75,VU,1651313114
125,fare,-16.7,-151.0167,26.95,75,5,8.25,PF,1651313115
126,srandakan,-7.9386,110.2506,27.78,82,90,1.3,ID,1651313115
127,ayan,56.45,138.1667,-0.01,99,100,2.85,RU,1651313116
128,carballo,43.213,-8.691,21.67,71,35,1.54,ES,1651313116
129,male,4.1748,73.5089,30.2,72,72,6.74,MV,1651313117
130,tabriz,38.08,46.2919,18.7,45,40,6.17,IR,1651313117
131,skelleftea,64.7507,20.9528,5.0,59,0,5.14,SE,1651313118
132,melfi,40.9965,15.6514,16.88,44,2,3.05,IT,1651313118
133,fort smith,35.3859,-94.3986,23.02,76,100,4.63,US,1651313056
134,matara,5.9485,80.5353,31.18,66,35,5.97,LK,1651313119
135,rawlins,41.7911,-107.2387,0.94,80,100,3.09,US,1651313119
136,mastic beach,40.7668,-72.8521,8.0,52,0,0.89,US,1651313120
137,sao joao da barra,-21.6403,-41.0511,23.05,91,13,3.23,BR,1651313120
138,cairns,-16.9167,145.7667,23.97,91,100,2.57,AU,1651313121
139,oppdal,62.5943,9.6912,1.54,87,91,1.53,NO,1651313122
140,mtambile,-5.3833,39.7,27.44,73,94,6.07,TZ,1651313124
141,nome,64.5011,-165.4064,5.04,61,100,5.66,US,1651313124
142,wawa,9.9022,4.4192,33.34,44,98,2.48,NG,1651313125
143,katete,-0.7818,29.7544,21.75,65,100,0.63,UG,1651313125
144,cidreira,-30.1811,-50.2056,15.43,72,0,2.91,BR,1651313126
145,benjamin constant,-4.3831,-70.0311,23.07,100,100,0.32,BR,1651313126
146,mount isa,-20.7333,139.5,27.87,39,38,5.14,AU,1651313127
147,brigantine,39.4101,-74.3646,7.22,55,0,2.57,US,1651313127
148,aklavik,68.2191,-135.0107,-1.74,94,93,3.81,CA,1651313127
149,bandarbeyla,9.4942,50.8122,31.31,61,11,4.27,SO,1651313128
150,cabo san lucas,22.8909,-109.9124,22.51,54,67,4.78,MX,1651313128
151,trincomalee,8.5711,81.2335,32.07,64,98,4.95,LK,1651313129
152,walvis bay,-22.9575,14.5053,17.27,55,0,6.04,NA,1651313129
153,labuhan,-6.8844,112.2051,27.67,81,100,3.23,ID,1651313130
154,half moon bay,37.4636,-122.4286,12.97,76,0,6.69,US,1651313130
155,callaway,30.153,-85.5699,22.19,90,40,5.66,US,1651313131
156,ozernovskiy,51.5,156.5167,1.67,86,100,1.55,RU,1651313131
157,asau,46.4333,26.4,14.51,55,25,3.17,RO,1651313132
158,great falls,47.5002,-111.3008,3.71,87,0,4.63,US,1651313132
159,puerto del rosario,28.5004,-13.8627,20.86,68,20,6.69,ES,1651313132
160,marabba,12.35,32.1833,40.1,11,1,2.02,SD,1651313133
161,los llanos de aridane,28.6585,-17.9182,17.86,83,20,5.66,ES,1651313133
162,sinegorye,62.0788,150.477,-6.91,95,97,0.73,RU,1651313134
163,mar del plata,-38.0023,-57.5575,7.71,68,0,1.34,AR,1651313134
164,malartic,48.1335,-78.1328,-6.1,93,12,1.08,CA,1651313135
165,avarua,-21.2078,-159.775,26.03,83,20,5.66,CK,1651313135
166,east london,-33.0153,27.9116,22.01,45,6,8.55,ZA,1651313136
167,cururupu,-1.8283,-44.8683,23.87,97,96,1.02,BR,1651313137
168,hobart,-42.8794,147.3294,12.92,65,75,4.63,AU,1651313006
169,tilichiki,60.4667,166.1,-4.52,91,89,3.09,RU,1651313138
170,kaili,-3.4626,120.2147,21.35,95,97,0.8,ID,1651313138
171,richards bay,-28.783,32.0377,20.06,83,99,6.33,ZA,1651313139
172,tabou,4.423,-7.3528,29.22,70,88,2.85,CI,1651313139
173,mendi,-6.1761,143.6513,14.14,97,100,0.53,PG,1651313140
174,necochea,-38.5473,-58.7368,6.04,57,95,2.58,AR,1651313140
175,butaritari,3.0707,172.7902,27.54,80,40,5.64,KI,1651313141
176,eydhafushi,5.1033,73.0708,30.09,72,59,6.77,MV,1651313141
177,linxia,35.6003,103.2064,9.3,30,100,3.93,CN,1651313141
178,aksarka,66.5606,67.7975,-2.53,77,60,7.06,RU,1651313142
179,linhai,28.85,121.1167,15.52,76,100,1.02,CN,1651313142
180,rabo de peixe,37.8,-25.5833,16.73,100,20,2.57,PT,1651313143
181,abalak,58.1286,68.5944,7.69,33,67,2.54,RU,1651313143
182,valle de allende,26.9333,-105.4,16.96,16,0,3.94,MX,1651313143
183,kapoeta,4.7717,33.5903,31.49,43,98,5.48,SS,1651313144
184,savinka,50.0785,47.0994,16.62,36,91,3.05,RU,1651313144
185,zuya,45.0531,34.3154,16.98,60,100,5.35,UA,1651313145
186,victoria,22.2855,114.1577,27.32,84,100,8.49,HK,1651313070
187,george town,5.4112,100.3354,31.96,62,20,2.06,MY,1651313117
188,camalu,30.85,-116.0667,14.93,89,23,1.94,MX,1651313146
189,lagoa,39.05,-27.9833,15.68,87,13,7.62,PT,1651313146
190,cayenne,4.9333,-52.3333,27.27,10,0,3.09,GF,1651312858
191,jamestown,42.097,-79.2353,1.8,70,0,0.89,US,1651313147
192,cascais,38.6979,-9.4215,25.9,56,0,6.71,PT,1651313148
193,klaksvik,62.2266,-6.589,8.51,81,42,4.41,FO,1651313148
194,tondela,40.5167,-8.0833,23.91,44,10,0.73,PT,1651313149
195,morros,-9.4467,-46.3003,21.07,67,97,1.86,BR,1651313149
196,ketchikan,55.3422,-131.6461,5.99,87,0,3.09,US,1651313150
197,klaebu,63.2976,10.4826,5.52,91,100,5.38,NO,1651313150
198,shenjiamen,29.9576,122.298,13.27,79,100,4.15,CN,1651313151
199,tevriz,57.509,72.4042,9.15,34,92,3.93,RU,1651313151
200,kensington,-33.9167,151.2167,17.02,82,32,5.14,AU,1651313061
201,cloquet,46.7216,-92.4594,6.86,79,100,4.63,US,1651313016
202,milkovo,54.7167,158.6167,-0.34,86,13,0.82,RU,1651313152
203,coquimbo,-29.9533,-71.3436,13.85,82,100,0.0,CL,1651313152
204,north bend,43.4065,-124.2243,12.14,97,100,3.6,US,1651313134
205,saint-pierre,-21.3393,55.4781,28.82,74,20,4.12,RE,1651313154
206,imbituba,-28.24,-48.6703,18.25,77,47,1.04,BR,1651312923
207,pedernales,18.0384,-71.744,24.46,72,26,0.32,DO,1651313157
208,lebu,-37.6167,-73.65,8.4,78,2,6.06,CL,1651313158
209,molina,-35.1167,-71.2833,4.85,93,0,0.0,CL,1651313158
210,arvika,59.6553,12.5852,11.34,30,16,1.24,SE,1651313159
211,baykit,61.67,96.37,3.94,84,100,2.95,RU,1651313159
212,tazovskiy,67.4667,78.7,-2.86,80,99,8.41,RU,1651313159
213,bagua grande,-5.7561,-78.4411,22.31,97,100,0.6,PE,1651313160
214,nanortalik,60.1432,-45.2371,3.73,84,74,2.22,GL,1651313160
215,alofi,-19.0595,-169.9187,26.74,82,98,5.43,NU,1651313160
216,bucerias,20.75,-105.3333,20.55,74,10,2.23,MX,1651313161
217,mangla,31.8931,72.3817,44.2,8,0,3.09,PK,1651313162
218,ancud,-41.8697,-73.8203,6.11,83,44,1.35,CL,1651313163
219,kununurra,-15.7667,128.7333,30.99,58,93,3.09,AU,1651312867
220,buala,-8.145,159.5921,27.07,79,100,0.71,SB,1651313163
221,chokurdakh,70.6333,147.9167,-9.28,92,14,3.63,RU,1651313163
222,roald,62.5833,6.1333,10.05,70,75,5.14,NO,1651313164
223,melk,48.2274,15.3319,18.97,49,75,3.53,AT,1651313164
224,hofn,64.2539,-15.2082,8.41,74,6,3.02,IS,1651313165
225,cherskiy,68.75,161.3,-18.54,100,16,1.26,RU,1651313165
226,tuktoyaktuk,69.4541,-133.0374,-7.65,97,49,3.01,CA,1651313165
227,moose factory,51.2585,-80.6094,-2.14,97,83,1.67,CA,1651313166
228,christchurch,-43.5333,172.6333,14.39,87,4,4.12,NZ,1651312971
229,gashua,12.871,11.0482,37.97,20,86,5.06,NG,1651313167
230,zhangzhou,24.5133,117.6556,22.1,76,100,2.81,CN,1651313101
231,cortez,37.3489,-108.5859,5.39,54,0,3.09,US,1651313167
232,anadyr,64.75,177.4833,-5.35,96,100,2.59,RU,1651313100
233,manakara,-22.1333,48.0167,26.8,60,3,2.19,MG,1651313168
234,katsuura,35.1333,140.3,11.46,65,6,5.57,JP,1651313168
235,airai,-8.9266,125.4092,17.04,90,91,1.25,TL,1651313169
236,madimba,-10.4,40.3333,28.69,59,52,4.69,TZ,1651313169
237,hadgaon,19.5,77.6667,42.57,9,7,3.08,IN,1651313169
238,bria,6.5423,21.9863,33.55,41,90,2.49,CF,1651313170
239,newport,51.5877,-2.9984,14.32,60,96,1.02,GB,1651313170
240,erenhot,43.6475,111.9767,12.85,16,18,9.01,CN,1651313171
241,wichian buri,15.6578,101.106,35.92,37,50,2.66,TH,1651313171
242,pimentel,-6.8367,-79.9342,18.34,90,100,4.58,PE,1651313171
243,santa maria,-29.6842,-53.8069,9.26,91,52,2.69,BR,1651313172
244,husavik,66.0449,-17.3389,8.61,66,15,3.25,IS,1651313172
245,upernavik,72.7868,-56.1549,-10.23,80,100,4.46,GL,1651313174
246,suda,59.1525,37.5582,4.06,46,100,4.16,RU,1651313174
247,flinders,-34.5833,150.8552,16.25,71,1,4.96,AU,1651313164
248,axim,4.8699,-2.2405,29.63,69,57,3.41,GH,1651313175
249,goma,-1.6792,29.2228,21.8,70,100,1.63,CD,1651313175
250,ribeira grande,38.5167,-28.7,17.22,88,40,5.66,PT,1651313176
251,beian,63.6559,9.5683,7.05,70,75,10.29,NO,1651313176
252,prince rupert,54.3161,-130.3201,6.11,80,86,1.99,CA,1651313176
253,matamba,-8.9833,33.9667,18.42,76,71,1.72,TZ,1651313177
254,balikpapan,-1.2675,116.8289,28.55,84,20,3.6,ID,1651312971
255,puerto escondido,15.85,-97.0667,27.0,70,58,3.36,MX,1651313178
256,kargasok,59.0556,80.8572,7.82,48,83,5.87,RU,1651313178
257,srednekolymsk,67.45,153.6833,-10.38,91,82,2.97,RU,1651313179
258,san quintin,30.4833,-115.95,13.2,88,30,2.07,MX,1651313179
259,palana,59.1167,159.9667,-2.79,92,27,1.63,RU,1651313180
260,sakakah,29.9697,40.2064,32.16,20,67,7.12,SA,1651313180
261,bairiki,1.3292,172.9752,27.0,83,75,2.06,KI,1651313180
262,rio claro,-22.4114,-47.5614,17.37,97,75,2.36,BR,1651313181
263,port hardy,50.6996,-127.4199,7.64,86,100,3.25,CA,1651313181
264,araouane,18.9048,-3.5265,33.82,5,0,3.83,ML,1651313182
265,sompeta,18.9333,84.6,32.48,55,50,3.65,IN,1651313182
266,rokiskis,55.9667,25.5833,8.65,37,12,3.17,LT,1651313183
267,shimoda,34.6667,138.95,11.72,66,69,5.87,JP,1651312886
268,burnie,-41.0667,145.9167,12.18,82,75,6.48,AU,1651312893
269,ledyard,41.4398,-72.0142,7.51,44,0,2.57,US,1651313184
270,sola,-13.8833,167.55,27.99,70,100,1.99,VU,1651313184
271,coos bay,43.3665,-124.2179,12.18,99,100,3.09,US,1651312907
272,norman wells,65.282,-126.8329,-0.76,95,30,1.76,CA,1651313186
273,arcachon,44.5875,-1.0519,21.34,72,20,4.63,FR,1651313186
274,natal,-5.795,-35.2094,24.36,88,20,2.57,BR,1651313186
275,puerto el triunfo,13.2833,-88.55,26.5,77,90,1.19,SV,1651313187
276,westport,41.1415,-73.3579,7.9,42,0,3.09,US,1651313187
277,havre-saint-pierre,50.2334,-63.5986,1.2,80,100,9.77,CA,1651313188
278,ardakan,32.31,54.0175,21.43,52,85,2.8,IR,1651313189
279,port lincoln,-34.7333,135.8667,16.09,68,39,3.82,AU,1651313190
280,leningradskiy,69.3833,178.4167,-13.25,98,84,3.19,RU,1651313191
281,pierre,44.3683,-100.351,5.51,91,100,14.92,US,1651313191
282,entre rios,-11.9419,-38.0844,22.42,90,70,1.09,BR,1651313191
283,katangli,51.7102,143.2326,-0.06,98,100,5.19,RU,1651313192
284,tocopilla,-22.092,-70.1979,17.47,68,97,2.66,CL,1651313192
285,itaituba,-4.2761,-55.9836,22.05,100,100,0.58,BR,1651313193
286,yulara,-25.2406,130.9889,19.91,49,100,7.72,AU,1651313193
287,sillamae,59.3997,27.7547,4.6,49,25,2.6,EE,1651313195
288,mogadishu,2.0371,45.3438,29.8,68,32,5.62,SO,1651313196
289,praia da vitoria,38.7333,-27.0667,17.64,93,22,3.22,PT,1651313196
290,murillo,4.8739,-75.1715,6.96,92,100,1.82,CO,1651313196
291,yongan,39.6957,113.6871,12.21,15,0,7.61,CN,1651313197
292,birao,10.2849,22.7882,37.31,25,100,2.22,CF,1651313197
293,berlevag,70.8578,29.0864,-3.11,63,100,6.35,NO,1651313197
294,aitape,-3.1374,142.3475,26.66,84,92,2.47,PG,1651313198
295,verkhoyansk,67.5447,133.385,-2.32,84,62,2.35,RU,1651313198
296,korla,41.7597,86.1469,21.23,18,0,6.35,CN,1651313199
297,hobyo,5.3505,48.5268,31.34,59,82,4.31,SO,1651313200
298,huron,41.1501,-82.5499,8.87,62,100,3.99,US,1651313201
299,road town,18.4167,-64.6167,24.05,93,100,6.46,VG,1651313201
300,touros,-5.1989,-35.4608,26.01,78,93,4.78,BR,1651313202
301,honiara,-9.4333,159.95,26.51,85,100,0.92,SB,1651313203
302,ilebo,-4.3167,20.5833,29.84,55,100,0.42,CD,1651313204
303,clonakilty,51.6231,-8.8706,12.83,76,100,2.68,IE,1651313204
304,kurilsk,45.2333,147.8833,-0.03,89,99,7.09,RU,1651313204
305,santiago del estero,-27.7951,-64.2615,13.49,53,100,2.21,AR,1651313205
306,sangar,63.9242,127.4739,1.13,84,65,4.99,RU,1651313205
307,ostrovnoy,68.0531,39.5131,-2.42,87,99,8.56,RU,1651313206
308,malaya purga,56.5567,53.0043,10.28,37,11,3.82,RU,1651313207
309,kolokani,13.5728,-8.0339,35.01,27,44,3.35,ML,1651313207
310,lata,40.1629,-8.3327,24.72,48,21,1.58,PT,1651313207
311,caravelas,-17.7125,-39.2481,22.47,91,23,1.21,BR,1651313208
312,pokhara,28.2333,83.9833,25.62,51,80,2.05,NP,1651313208
313,ixtapa,20.7,-105.2,20.13,74,7,1.68,MX,1651313209
314,vanimo,-2.6741,141.3028,26.25,86,75,4.66,PG,1651313209
315,coihaique,-45.5752,-72.0662,3.23,99,100,2.45,CL,1651313037
316,yeppoon,-23.1333,150.7333,21.88,89,2,4.48,AU,1651313210
317,mahanoro,-19.9,48.8,25.62,60,0,3.0,MG,1651313210
318,upington,-28.4478,21.2561,19.21,37,0,2.57,ZA,1651313210
319,lorengau,-2.0226,147.2712,27.17,76,92,2.26,PG,1651313211
320,ilulissat,69.2167,-51.1,-6.99,63,75,7.2,GL,1651313211
321,eyl,7.9803,49.8164,32.74,53,13,5.5,SO,1651313211
322,xining,36.6167,101.7667,6.63,43,100,6.75,CN,1651313212
323,deputatskiy,69.3,139.9,-10.27,95,38,1.77,RU,1651313212
324,beaverlodge,55.2166,-119.4361,-0.15,95,94,1.7,CA,1651313213
325,ponta do sol,32.6667,-17.1,22.35,58,0,0.36,PT,1651313213
326,kailua,21.4022,-157.7394,23.99,78,20,5.66,US,1651313214
327,chitral,35.8462,71.7858,26.42,25,3,0.74,PK,1651313215
328,tarasovskiy,48.7292,40.3636,16.25,51,88,5.51,RU,1651313215
329,americo brasiliense,-21.7244,-48.1017,17.1,91,5,2.83,BR,1651313216
330,asyut,27.181,31.1837,36.39,8,81,7.11,EG,1651313216
331,sambava,-14.2667,50.1667,27.42,70,35,5.48,MG,1651313216
332,zhezkazgan,47.8043,67.7144,26.99,22,0,3.0,KZ,1651313217
333,baker city,44.7749,-117.8344,6.99,62,100,3.09,US,1651313217
334,kiama,-34.6833,150.8667,17.22,66,1,2.24,AU,1651313218
335,scarborough,54.2797,-0.4044,15.18,62,59,0.89,GB,1651312964
336,arkansas city,37.062,-97.0384,12.79,87,0,3.6,US,1651313218
337,mbanza-ngungu,-5.25,14.8667,20.78,96,100,0.29,CD,1651313219
338,grand-lahou,5.1367,-5.0242,29.8,68,91,3.62,CI,1651313220
339,brigham city,41.5102,-112.0155,6.12,51,0,1.79,US,1651312943
340,bajil,15.0584,43.2851,37.9,35,1,6.82,YE,1651313220
341,bay roberts,47.5999,-53.2648,5.28,96,100,1.71,CA,1651313221
342,gandu,-13.7439,-39.4867,20.62,93,82,1.13,BR,1651313221
343,warrington,53.3925,-2.5802,14.78,55,0,2.57,GB,1651313099
344,graaff-reinet,-32.2522,24.5308,17.18,57,3,2.48,ZA,1651313222
345,longyearbyen,78.2186,15.6401,-11.09,62,20,3.6,SJ,1651313222
346,hamilton,39.1834,-84.5333,12.84,79,100,3.09,US,1651313143
347,aborlan,9.4352,118.5492,29.04,82,96,1.46,PH,1651313223
348,balaipungut,1.05,101.2833,28.79,86,96,1.05,ID,1651313223
349,puerto ayacucho,5.6639,-67.6236,23.05,97,99,1.22,VE,1651312987
350,henties bay,-22.116,14.2845,17.63,71,0,5.84,NA,1651313224
351,robertsport,6.7533,-11.3686,27.36,79,93,1.6,LR,1651313224
352,roblin,51.23,-101.3565,1.46,91,100,3.26,CA,1651313225
353,talara,-4.5772,-81.2719,20.08,81,92,6.08,PE,1651313225
354,skibbereen,51.55,-9.2667,11.73,71,100,2.64,IE,1651313225
355,marsa matruh,31.3525,27.2453,22.44,57,6,5.95,EG,1651313226
356,shitanjing,39.2342,106.3439,11.85,12,0,7.04,CN,1651313226
357,quelimane,-17.8786,36.8883,25.5,74,24,2.65,MZ,1651313227
358,popondetta,-8.7537,148.2534,22.9,99,75,1.39,PG,1651313228
359,diban,35.0365,40.5167,34.4,17,23,5.73,SY,1651313229
360,kaohsiung,22.6163,120.3133,28.97,71,75,4.63,TW,1651313228
361,hannibal,39.7084,-91.3585,16.86,72,100,3.09,US,1651313003
362,hangu,39.2489,117.7892,20.02,17,2,3.65,CN,1651313229
363,salvador,13.8333,-88.9167,22.22,87,100,0.63,SV,1651313230
364,loandjili,-4.7561,11.8578,24.61,85,100,3.95,CG,1651313230
365,hirara,24.8,125.2833,24.52,82,100,5.29,JP,1651312996
366,cabedelo,-6.9811,-34.8339,25.37,74,71,4.3,BR,1651313231
367,arraial do cabo,-22.9661,-42.0278,23.92,94,75,2.06,BR,1651313232
368,tuatapere,-46.1333,167.6833,12.7,83,100,3.45,NZ,1651313232
369,san cristobal,7.7669,-72.225,23.1,98,100,1.76,VE,1651313233
370,fortuna,40.5982,-124.1573,13.29,84,100,3.09,US,1651313233
371,pishin,30.5803,66.9961,32.68,8,0,5.64,PK,1651313234
372,cape coast,5.1053,-1.2466,29.15,71,91,3.47,GH,1651313234
373,pisco,-13.7,-76.2167,17.23,88,83,5.14,PE,1651313235
374,jatibarang,-6.4747,108.3153,28.63,77,30,3.51,ID,1651313141
375,chernushka,56.5072,56.0766,8.84,32,0,1.08,RU,1651313235
376,nikki,9.9401,3.2108,32.32,43,100,2.66,BJ,1651313236
377,tongzi,28.7829,105.0877,13.87,87,100,3.0,CN,1651313236
378,talnakh,69.4865,88.3972,-4.33,91,100,4.07,RU,1651313237
379,grand gaube,-20.0064,57.6608,27.99,62,0,4.47,MU,1651313237
380,knysna,-34.0363,23.0471,19.62,55,72,4.76,ZA,1651313237
381,lavrentiya,65.5833,-171.0,-3.28,91,100,4.55,RU,1651313238
382,komsomolskiy,40.4272,71.7189,30.4,25,23,3.09,UZ,1651313238
383,am timan,11.0297,20.2827,36.58,29,100,3.76,TD,1651313239
384,geraldton,-28.7667,114.6,21.23,68,0,7.72,AU,1651313239
385,kirakira,-10.4544,161.9205,27.15,79,100,0.21,SB,1651313239
386,gualaquiza,-3.4,-78.55,17.19,100,100,0.53,EC,1651313240
387,comodoro rivadavia,-45.8667,-67.5,6.92,57,0,3.6,AR,1651313240
388,kautokeino,69.0125,23.0412,-1.62,66,94,6.02,NO,1651313241
389,sesheke,-17.4759,24.2968,27.53,26,0,2.44,ZM,1651313241
390,akyab,20.15,92.9,30.07,68,17,6.23,MM,1651313241
391,port keats,-14.25,129.55,28.34,77,93,2.21,AU,1651313242
392,camacha,33.0833,-16.3333,17.68,77,20,5.66,PT,1651313243
393,pacific grove,36.6177,-121.9166,9.68,86,0,2.68,US,1651313243
394,tres arroyos,-38.3739,-60.2798,3.72,53,89,3.13,AR,1651313023
395,port-cartier,50.0334,-66.8654,0.97,94,100,5.49,CA,1651313244
396,gat,31.61,34.7642,31.89,40,0,10.85,IL,1651313244
397,ahipara,-35.1667,173.1667,14.78,88,4,3.19,NZ,1651313245
398,ruteng,-8.6136,120.4721,18.6,94,98,0.76,ID,1651313245
399,senges,-24.1128,-49.4636,17.61,85,99,3.24,BR,1651313246
400,raudeberg,61.9875,5.1352,9.42,73,100,1.57,NO,1651313246
401,mallaig,54.2169,-111.3685,0.58,80,69,2.22,CA,1651313246
402,mineiros,-17.5694,-52.5511,16.96,64,1,1.43,BR,1651313247
403,mmabatho,-25.85,25.6333,22.25,42,16,4.64,ZA,1651313247
404,surt,31.2089,16.5887,20.81,61,93,5.35,LY,1651313248
405,caibarien,22.5206,-79.4669,19.62,75,0,4.64,CU,1651313248
406,jalu,29.0331,21.5482,28.89,21,0,2.22,LY,1651313249
407,razole,16.4833,81.8333,34.61,50,3,4.54,IN,1651313249
408,kamaishi,39.2667,141.8833,7.23,73,100,3.38,JP,1651313250
409,tiarei,-17.5333,-149.3333,25.0,75,13,8.51,PF,1651313250
410,channel-port aux basques,47.5702,-59.1367,4.37,91,100,0.94,CA,1651313251
411,barbacoas,1.6715,-78.1398,23.3,97,94,0.79,CO,1651313251
412,okhotsk,59.3833,143.3,1.84,91,35,2.62,RU,1651313252
413,santa marta,11.2408,-74.199,28.27,74,100,2.24,CO,1651313252
414,olafsvik,64.8945,-23.7142,7.18,85,9,5.08,IS,1651313252
415,winnemucca,40.973,-117.7357,9.87,34,91,2.05,US,1651312996
416,pangai,-19.8,-174.35,27.08,83,100,7.69,TO,1651313253
417,kampot,10.6167,104.1833,30.03,71,47,2.68,KH,1651313253
418,rio grande,-32.035,-52.0986,12.84,72,4,2.01,BR,1651313254
419,the pas,53.8251,-101.2541,1.13,100,97,1.68,CA,1651313254
420,itoman,26.1247,127.6694,23.01,73,75,3.6,JP,1651313255
421,northam,51.0333,-4.2167,12.92,72,100,2.0,GB,1651313255
422,del rio,29.3627,-100.8968,24.06,82,100,4.12,US,1651313256
423,dunedin,-45.8742,170.5036,12.67,80,54,0.89,NZ,1651313256
424,porto novo,6.4965,2.6036,31.14,61,100,3.92,BJ,1651313256
425,vangaindrano,-23.35,47.6,26.1,65,2,0.73,MG,1651313257
426,nautla,20.2167,-96.7833,23.84,92,51,2.64,MX,1651313257
427,hobbs,32.7026,-103.136,14.33,33,100,5.14,US,1651313258
428,dandong,40.1292,124.3947,14.26,23,4,4.52,CN,1651313258
429,guanambi,-14.2233,-42.7814,19.54,81,4,2.84,BR,1651313258
430,medak,18.0333,78.2667,42.44,9,6,4.48,IN,1651313259
431,bilibino,68.0546,166.4372,-13.99,97,95,2.36,RU,1651313259
432,puerto baquerizo moreno,-0.9,-89.6,21.53,91,35,3.92,EC,1651313260
433,vila,42.0304,-8.1588,18.72,56,26,1.55,PT,1651313260
434,santa cruz,-17.8,-63.1667,18.03,88,40,6.17,BO,1651313261
435,saint pete beach,27.7253,-82.7412,22.03,79,0,8.23,US,1651313261
436,nioro,13.35,-15.75,30.88,20,40,3.28,GM,1651313261
437,tarsus,36.9188,34.8784,31.21,32,28,7.4,TR,1651313262
438,tanout,14.9709,8.8879,38.38,4,40,3.55,NE,1651313262
439,saint-georges,12.0564,-61.7485,26.82,83,20,9.26,GD,1651313263
440,codrington,-38.2667,141.9667,13.36,73,45,5.49,AU,1651313263
441,angoche,-16.2325,39.9086,27.04,52,6,3.47,MZ,1651313264
442,sijunjung,-0.6876,100.9537,26.38,88,94,0.5,ID,1651313264
443,nhulunbuy,-12.2333,136.7667,26.34,89,91,2.06,AU,1651313265
444,zheleznodorozhnyy,55.7503,38.0042,7.34,40,79,3.87,RU,1651313265
445,alice springs,-23.7,133.8833,21.75,32,75,6.17,AU,1651313151
446,churapcha,62.0025,132.4325,-0.46,88,11,1.64,RU,1651313266
447,domoni,-12.2569,44.5319,27.08,81,66,2.98,KM,1651313267
448,sitka,57.0531,-135.33,4.94,75,0,0.0,US,1651313267
449,palmer,42.1584,-72.3287,4.72,71,0,0.0,US,1651313267
450,oktyabrskoye,43.0645,44.7417,21.08,64,75,3.0,RU,1651313268
451,muravlenko,63.7898,74.523,-0.54,86,34,7.43,RU,1651313268
452,mayo,38.8876,-76.5119,9.41,66,0,2.06,US,1651313269
453,madisonville,37.3281,-87.4989,18.92,83,92,4.84,US,1651313269
454,kyren,51.6828,102.1408,18.04,36,99,1.18,RU,1651313269
455,nemuro,43.3236,145.575,3.56,64,1,1.72,JP,1651312992
456,pangnirtung,66.1451,-65.7125,-10.76,75,76,2.47,CA,1651313270
457,visnes,59.3556,5.2242,10.21,53,0,6.17,NO,1651313270
458,fallon,39.4735,-118.7774,5.93,36,0,2.06,US,1651313101
459,yumen,40.2833,97.2,14.87,16,89,4.28,CN,1651313271
460,veraval,20.9,70.3667,32.26,61,0,6.64,IN,1651313271
461,havoysund,70.9963,24.6622,-0.87,65,100,7.48,NO,1651313272
462,chapleau,47.8405,-83.4034,-1.44,95,75,2.15,CA,1651313272
463,carutapera,-1.195,-46.02,23.98,95,100,1.93,BR,1651313273
464,adrar,20.5022,-10.0711,28.15,14,36,3.01,MR,1651313273
465,emerald,-23.5333,148.1667,22.41,66,28,4.1,AU,1651313090
466,huarmey,-10.0681,-78.1522,18.87,89,90,2.69,PE,1651313274
467,meulaboh,4.1363,96.1285,29.21,73,99,2.11,ID,1651313274
468,nicoya,10.1483,-85.452,24.86,81,99,0.83,CR,1651313274
469,evensk,61.95,159.2333,1.02,77,15,4.19,RU,1651313275
470,belyy yar,53.6039,91.3903,26.94,14,0,4.0,RU,1651313275
471,ridgecrest,35.6225,-117.6709,18.14,27,0,4.12,US,1651313276
472,pingliang,35.5392,106.6861,12.34,18,100,4.51,CN,1651313276
473,oranjemund,-28.55,16.4333,17.76,52,0,4.48,NA,1651313277
474,caraquet,47.7941,-64.9386,1.14,97,100,5.78,CA,1651313277
475,anuppur,23.1,81.6833,42.7,7,39,6.35,IN,1651313277
476,mingguang,32.7802,117.9638,15.48,74,100,1.53,CN,1651313279
477,puerto gaitan,4.3133,-72.0816,22.5,95,98,4.15,CO,1651313279
478,pontes e lacerda,-15.2261,-59.3353,19.68,81,56,0.4,BR,1651313279
479,zhangye,38.9342,100.4517,11.82,36,100,3.63,CN,1651313280
480,hay river,60.8156,-115.7999,-5.79,96,17,1.14,CA,1651313280
481,mahajanga,-15.7167,46.3167,30.26,50,5,1.22,MG,1651313280
482,boulsa,12.6675,-0.5758,35.13,27,90,3.86,BF,1651313281
483,burley,42.5357,-113.7928,-1.02,69,0,3.6,US,1651313281
484,kalaleh,37.3807,55.4916,20.78,78,100,0.0,IR,1651313282
485,acapulco,16.8634,-99.8901,23.9,88,20,0.0,MX,1651313282
486,barcelos,41.5388,-8.6151,23.29,48,44,1.97,PT,1651313283
487,hualmay,-11.0964,-77.6139,18.17,91,93,3.21,PE,1651313284
488,verkhnyaya toyma,62.2349,44.9985,3.54,42,63,2.94,RU,1651313284
489,sargatskoye,55.6101,73.4972,15.12,42,94,6.32,RU,1651313285
490,broome,42.2506,-75.833,1.38,70,0,0.89,US,1651313285
491,conde,-7.2597,-34.9075,24.7,83,40,3.6,BR,1651313286
492,nabire,-3.3667,135.4833,25.66,90,100,1.0,ID,1651313286
493,kiunga,-6.1219,141.2906,26.42,72,71,0.38,PG,1651313287
494,ibra,22.6906,58.5334,39.47,17,91,7.07,OM,1651313287
495,bhainsdehi,21.6467,77.6325,38.99,10,5,6.44,IN,1651313288
496,sarajevo,43.8486,18.3564,18.84,42,0,2.24,BA,1651313288
497,omsukchan,62.5333,155.8,-7.73,96,100,2.01,RU,1651313289
498,awjilah,29.1081,21.2869,28.66,22,1,2.05,LY,1651313290
499,atambua,-9.1061,124.8925,24.6,82,63,0.92,ID,1651313291
500,ukiah,39.1502,-123.2078,11.87,81,0,0.0,US,1651313291
501,chernyshevskiy,63.0128,112.4714,2.64,99,100,4.0,RU,1651313292
502,la ronge,55.1001,-105.2842,-0.57,97,100,2.19,CA,1651313292
503,santiago de cao,-7.9589,-79.2392,17.07,94,100,3.6,PE,1651313293
504,portland,45.5234,-122.6762,11.58,95,100,4.63,US,1651313293
505,mirnyy,62.5353,113.9611,2.91,100,100,4.02,RU,1651313294
506,tommot,58.9564,126.2925,2.55,75,56,1.17,RU,1651313294
507,lazaro cardenas,17.9583,-102.2,21.97,84,18,1.79,MX,1651313294
508,trinidad,-14.8333,-64.9,20.57,81,100,2.0,BO,1651313041
509,ronneby,56.21,15.276,10.28,71,20,2.57,SE,1651313296
510,cortes,41.9395,-1.4396,19.92,55,100,7.88,ES,1651313296
511,chengde,40.9725,117.9361,16.3,14,98,4.52,CN,1651313297
512,beira,-19.8436,34.8389,28.05,54,20,2.06,MZ,1651313297
513,xam nua,20.4197,104.0439,21.66,91,88,1.08,LA,1651313297
514,luangwa,-15.6167,30.4167,30.11,39,0,0.99,ZM,1651313298
515,sabzevar,36.2126,57.6819,29.6,19,75,3.09,IR,1651313298
516,barcelona,41.3888,2.159,25.1,62,0,2.57,ES,1651313211
517,basoko,1.2391,23.616,29.74,54,99,0.13,CD,1651313299
518,cochabamba,-17.3895,-66.1568,14.89,72,76,1.25,BO,1651313039
519,alugan,12.2188,125.4808,27.2,83,100,3.45,PH,1651313300
520,ocampo,21.65,-101.5,12.59,15,0,2.76,MX,1651313300
521,karratha,-20.7377,116.8463,27.06,45,99,7.54,AU,1651313301
522,hambantota,6.1241,81.1185,33.19,75,40,3.6,LK,1651313301
523,kanker,20.2719,81.4931,43.63,8,43,4.32,IN,1651313205
524,sur,22.5667,59.5289,38.33,33,70,0.97,OM,1651313302
525,fukuchiyama,35.3,135.1167,9.61,83,19,0.56,JP,1651313078
526,ornskoldsvik,63.2909,18.7153,8.53,53,100,8.23,SE,1651313303
527,jacksonville,30.3322,-81.6556,21.67,83,75,3.6,US,1651313244
528,fukue,32.6881,128.8419,14.84,68,44,8.01,JP,1651313076
529,kamenka,51.3223,42.7678,13.1,43,86,3.71,RU,1651313304
530,matucana,-11.85,-76.4,13.66,72,72,3.57,PE,1651313304
531,horn,51.8715,8.9451,9.63,75,100,3.04,DE,1651313306
532,centralia,46.7162,-122.9543,9.44,86,100,2.06,US,1651313306
533,morrope,-6.5417,-80.0111,18.74,85,100,4.46,PE,1651313306
534,sharjah,25.3573,55.4033,33.16,31,0,7.2,AE,1651313307
535,maputo,-25.9653,32.5892,27.35,68,40,6.17,MZ,1651313118
536,ternate,0.8,127.4,27.44,80,88,3.73,ID,1651313258
537,orocue,4.7912,-71.3354,23.03,93,100,3.59,CO,1651313307
538,savannah bight,16.45,-85.85,26.95,77,28,10.26,HN,1651313308
539,kavieng,-2.5744,150.7967,28.5,69,40,0.89,PG,1651313308
540,ulaangom,49.9811,92.0667,15.51,20,59,2.55,MN,1651313309
541,oistins,13.0667,-59.5333,26.05,89,40,6.69,BB,1651313309
542,santa cruz de tenerife,28.4682,-16.2546,20.91,69,20,6.17,ES,1651313309
543,nelson bay,-32.7167,152.15,17.78,93,100,5.71,AU,1651313310
544,sibu,2.3,111.8167,27.66,84,86,0.33,MY,1651313296
545,narsaq,60.9167,-46.05,5.12,71,43,1.54,GL,1651313310
546,manga,11.6636,-1.0731,34.29,33,76,3.49,BF,1651313311
547,pangkalanbuun,-2.6833,111.6167,29.14,70,78,1.9,ID,1651313311
548,ulefoss,59.2838,9.2646,14.25,33,23,1.06,NO,1651313312
549,ajaccio,42.0,8.9167,16.03,68,0,4.12,FR,1651313312
550,abu zabad,12.35,29.25,40.14,8,92,5.17,SD,1651313313
551,denpasar,-8.65,115.2167,27.81,88,40,4.63,ID,1651313186
552,amazar,53.858,120.875,7.28,29,99,1.76,RU,1651313314
553,umtata,-31.5889,28.7844,17.97,57,20,2.23,ZA,1651313314
554,grand-santi,4.25,-54.3833,21.45,99,77,1.1,GF,1651313315
555,kijang,35.2442,129.2139,13.3,66,62,4.08,KR,1651313315
